[
  {"name": "University of Oxford", "lat": 51.7520, "lng": -1.2577, "postcode": "OX1 2JD"},
  {"name": "University of Cambridge", "lat": 52.2053, "lng": 0.1218, "postcode": "CB2 1TN"},
  {"name": "Imperial College London", "lat": 51.4988, "lng": -0.1749, "postcode": "SW7 2AZ"},
  {"name": "University of Edinburgh", "lat": 55.9437, "lng": -3.1897, "postcode": "EH8 9YL"},
  {"name": "University of Manchester", "lat": 53.4663, "lng": -2.2335, "postcode": "M13 9PL"},
  {"name": "King's College London", "lat": 51.5115, "lng": -0.1160, "postcode": "WC2R 2LS"},
  {"name": "London School of Economics", "lat": 51.5145, "lng": -0.1166, "postcode": "WC2A 2AE"},
  {"name": "University of Bristol", "lat": 51.4545, "lng": -2.6281, "postcode": "BS8 1TH"},
  {"name": "University of Warwick", "lat": 52.3815, "lng": -1.5616, "postcode": "CV4 7AL"},
  {"name": "University of Glasgow", "lat": 55.8721, "lng": -4.2882, "postcode": "G12 8QQ"},
  {"name": "Durham University", "lat": 54.7677, "lng": -1.5730, "postcode": "DH1 3HP"},
  {"name": "University of Sheffield", "lat": 53.3813, "lng": -1.4884, "postcode": "S10 2TN"},
  {"name": "University of Nottingham", "lat": 52.9388, "lng": -1.1959, "postcode": "NG7 2RD"},
  {"name": "University of Birmingham", "lat": 52.4516, "lng": -1.9305, "postcode": "B15 2TT"},
  {"name": "University of Leeds", "lat": 53.8064, "lng": -1.5558, "postcode": "LS2 9JT"},
  {"name": "University of Southampton", "lat": 50.9350, "lng": -1.3964, "postcode": "SO17 1BJ"},
  {"name": "University of York", "lat": 53.9475, "lng": -1.0534, "postcode": "YO10 5DD"},
  {"name": "University of Liverpool", "lat": 53.4064, "lng": -2.9666, "postcode": "L69 7ZX"},
  {"name": "University of St Andrews", "lat": 56.3408, "lng": -2.7981, "postcode": "KY16 9AJ"},
  {"name": "Queen Mary University of London", "lat": 51.5248, "lng": -0.0416, "postcode": "E1 4NS"},
  {"name": "University of Exeter", "lat": 50.7371, "lng": -3.5344, "postcode": "EX4 4QJ"},
  {"name": "University of Aberdeen", "lat": 57.0130, "lng": -2.1064, "postcode": "AB24 3FX"},
  {"name": "Newcastle University", "lat": 54.9791, "lng": -1.6146, "postcode": "NE1 7RU"},
  {"name": "University of Dundee", "lat": 56.4573, "lng": -3.0044, "postcode": "DD1 4HN"},
  {"name": "Cardiff University", "lat": 51.4878, "lng": -3.1800, "postcode": "CF10 3AT"},
  {"name": "University of Reading", "lat": 51.4551, "lng": -0.9456, "postcode": "RG6 6AH"},
  {"name": "University of Sussex", "lat": 50.8661, "lng": -0.0853, "postcode": "BN1 9RH"},
  {"name": "University of Leicester", "lat": 52.6220, "lng": -1.1252, "postcode": "LE1 7RH"},
  {"name": "University of Bath", "lat": 51.3814, "lng": -2.3481, "postcode": "BA2 7AY"},
  {"name": "Lancaster University", "lat": 54.0100, "lng": -2.7878, "postcode": "LA1 4YW"},
  {"name": "University of East Anglia", "lat": 52.6216, "lng": 1.2372, "postcode": "NR4 7TJ"},
  {"name": "University of Essex", "lat": 51.8760, "lng": 0.9462, "postcode": "CO4 3SQ"},
  {"name": "Royal Holloway University of London", "lat": 51.4261, "lng": -0.5621, "postcode": "TW20 0EX"},
  {"name": "University of Kent", "lat": 51.2951, "lng": 1.0564, "postcode": "CT2 7NZ"},
  {"name": "University of Strathclyde", "lat": 55.8620, "lng": -4.2412, "postcode": "G1 1XQ"},
  {"name": "University of Plymouth", "lat": 50.3753, "lng": -4.1388, "postcode": "PL4 8AA"},
  {"name": "University of Hull", "lat": 53.7690, "lng": -0.3571, "postcode": "HU6 7RX"},
  {"name": "University of Wales Trinity Saint David", "lat": 51.8862, "lng": -4.9727, "postcode": "SA31 3EQ"},
  {"name": "Nottingham Trent University", "lat": 52.9585, "lng": -1.1559, "postcode": "NG1 4FQ"},
  {"name": "University of the West of England", "lat": 51.5106, "lng": -2.5542, "postcode": "BS16 1QY"},
  {"name": "Manchester Metropolitan University", "lat": 53.4725, "lng": -2.2376, "postcode": "M15 6BH"},
  {"name": "University of Central Lancashire", "lat": 53.7627, "lng": -2.7214, "postcode": "PR1 2HE"},
  {"name": "De Montfort University", "lat": 52.6294, "lng": -1.1398, "postcode": "LE1 9BH"},
  {"name": "Aston University", "lat": 52.4820, "lng": -1.9026, "postcode": "B4 7ET"},
  {"name": "University of Hertfordshire", "lat": 51.7534, "lng": -0.2402, "postcode": "AL10 9AB"},
  {"name": "Sheffield Hallam University", "lat": 53.3762, "lng": -1.4680, "postcode": "S1 1WB"},
  {"name": "University of Portsmouth", "lat": 50.7990, "lng": -1.0834, "postcode": "PO1 2UP"},
  {"name": "Oxford Brookes University", "lat": 51.7496, "lng": -1.2422, "postcode": "OX3 0BP"},
  {"name": "University of Greenwich", "lat": 51.4830, "lng": 0.0073, "postcode": "SE10 9LS"},
  {"name": "Bournemouth University", "lat": 50.7420, "lng": -1.8940, "postcode": "BH12 5BB"}
]
